,IMU_ATTI(0):Longitude,IMU_ATTI(0):Latitude,IMU_ATTI(0):numSats,IMU_ATTI(0):barometer:Raw,IMU_ATTI(0):barometer:Smooth,IMU_ATTI(0):accel:X,IMU_ATTI(0):accel:Y,IMU_ATTI(0):accel:Z,IMU_ATTI(0):accel:Composite,IMU_ATTI(0):gyro:X,IMU_ATTI(0):gyro:Y,IMU_ATTI(0):gyro:Z,IMU_ATTI(0):gyro:Composite,IMU_ATTI(0):mag:X,IMU_ATTI(0):mag:Y,IMU_ATTI(0):mag:Z,IMU_ATTI(0):mag:Mod,IMU_ATTI(0):velN,IMU_ATTI(0):velE,IMU_ATTI(0):velD,IMU_ATTI(0):velComposite,IMU_ATTI(0):velH,IMU_ATTI(0):GPS-H,IMU_ATTI(0):roll,IMU_ATTI(0):pitch,IMU_ATTI(0):yaw,IMU_ATTI(0):yaw360,IMU_ATTI(0):totalGyro:Z,IMU_ATTI(0):totalGyro:X,IMU_ATTI(0):totalGyro:Y,IMU_ATTI(0):magYaw,IMU_ATTI(0):distanceHP,IMU_ATTI(0):distanceTravelled,IMU_ATTI(0):directionOfTravel[mag],IMU_ATTI(0):directionOfTravel[true],IMU_ATTI(0):temperature,General:relativeHeight,GPS(0):Long,GPS(0):Lat,GPS(0):Date,GPS(0):heightMSL,GPS(0):hDOP,GPS(0):pDOP,GPS(0):sAcc,GPS(0):numGPS,GPS(0):numGLNAS,GPS(0):numSV,GPS(0):velN,GPS(0):velE,GPS(0):velD,RC:Aileron,RC:Elevator,RC:Rudder,RC:Throttle,Motor:Speed:RFront,Motor:Speed:LFront,Motor:Speed:LBack,Motor:Speed:RBack,Motor:EscTemp:RFront,Motor:EscTemp:LFront,Motor:EscTemp:LBack,Motor:EscTemp:RBack,Motor:PPMrecv:RFront,Motor:PPMrecv:LFront,Motor:PPMrecv:LBack,Motor:PPMrecv:RBack,Motor:PPMsend:RFront,Motor:PPMsend:LFront,Motor:PPMsend:LBack,Motor:PPMsend:RBack,Motor:V_out:RFront,Motor:V_out:LFront,Motor:V_out:LBack,Motor:V_out:RBack,Motor:Volts:RFront,Motor:Volts:LFront,Motor:Volts:LBack,Motor:Volts:RBack,Motor:Current:RFront,Motor:Current:LFront,Motor:Current:LBack,Motor:Current:RBack,Motor:thrustAngle,AirComp:AirSpeedBody:X,AirComp:AirSpeedBody:Y,AirComp:Alti,AirComp:WindSpeed,AirComp:Wind:X,AirComp:Wind:Y,AirComp:MotorSpeed,AirComp:VelLevel,flyCState,MotorCtrl:PWM:RFront,MotorCtrl:PWM:LFront,MotorCtrl:PWM:LBack,MotorCtrl:PWM:RBack
20589,12.1950411664841,48.554384533616286,17,254.6121,255.26529,0.029737614,0.10917951,-0.9728558,0.9794146,-4.677234,-7.6690454,1.4066392,9.092273,175,669,1657,1795,0.35738054,0.2786006,0.07825307,0.4598507000000001,0.45314361270956,-0.0005808240036259999,-5.924078641913838,6.93313027566205,-48.648470429349395,311.351529570651,-1221.67716134382,14.0742833367273,-284.567694554114,-66.46327517435371,19.5768021690002,501.434055927283,50.330969271453114,53.5448748244246,64.99,6.900000095367429,12.1950419,48.5543839,20191203,394.974,65.0,118.0,829.0,9,8,17,0.49,0.18,0.06,0,-3788,0,0,12796,11503,11264,12358,33,30,25,29,1645,1569,1560,1630,1652,1582,1544,1625,69.2,60.8,59.3,67.3,11.1,11.1,11.2,11.0,1.15,0.93,0.9,1.31,-105.834376149318,-0.7348726999999999,-2.6852188,0.80529386,2.6991208,-2.6039035,-0.7105905,235.68718,107,6,66.59,57.79,53.05,63.19
4024,12.196090797387303,48.5557894832697,15,289.86502,289.45386,0.013510041,-0.0018593492000000002,-0.9782439,0.97833896,12.72969,-0.41909376,0.40815112,12.743125,711,-385,1596,1789,0.017320585,-0.14557448,-2.0800416,2.0852015,0.146601267905057,0.018312745070573,-1.8111429813228899,0.663667809615162,29.4991157134415,29.4991157134415,-180.26214476915501,1.38027266564688,52.7943202136372,24.6222303966142,42.608818222193,45.0739843932596,0.0,0.0,65.04,12.3999996185303,12.196091800000001,48.5557886,20191030,401.903,77.0,138.0,1106.0,8,7,15,0.01,0.09,-1.19,0,0,0,0,11948,11882,12358,12429,35,34,31,32,1592,1585,1624,1606,1590,1585,1621,1604,62.8,62.1,66.7,63.6,11.6,11.6,11.6,11.3,1.0,1.17,1.25,1.08,-8.14686530847962,-0.47402559999999994,-0.20973071,0.38649467,0.4037368,-0.40298748,0.024586774,231.75763999999998,103,7,57.91,57.24,62.61,61.8
35291,12.1964116940417,48.5561224739785,14,280.8765,275.498,0.019633282,0.032099877,-0.9940369000000001,0.99474883,-7.265581,1.6342974,-1.5597515,7.608707000000001,-965,-25,1539,1816,-0.07683858,-0.107786566,-1.9952686999999998,1.9996547999999998,0.13237111291770698,0.154521697225833,-2.2482115426297797,2.6698744541274904,-175.75733354776298,184.24266645223702,-412.679010968686,133.473158699474,4.31434668159461,-177.728549108177,0.37676177968951596,405.95743902508104,-144.176620212837,-140.962367116346,64.86,4.0,12.196411300000001,48.5561226,20191030,389.876,97.0,176.0,1293.0,7,7,14,-0.13,0.07,-1.42,0,0,0,10000,12358,12647,12796,12647,35,29,30,29,1663,1678,1674,1663,1662,1678,1678,1660,70.6,72.1,72.2,70.7,10.7,10.8,10.7,10.7,1.14,1.16,1.33,1.23,45.0,-0.1974765,-0.21626517,0.40021247,0.0,0.0,0.0,1.0,128,6,68.22,69.73,69.53,67.13
8609,12.1952982098907,48.5543268599207,14,247.73866,248.57726,0.04957752,0.022761814,-0.98524165,0.9867508,-3.4689852999999995,-3.3690825,1.5013663000000002,5.0634646,264,738,1546,1733,0.010877285,0.00630188,-0.06193618,0.06319904,0.012570959643236,0.014784306853982,-1.4805742518861598,1.66210270443457,-60.701392069536,299.29860793046396,-233.24183869946,285.220335655136,-367.94316200859197,-68.3840883708656,6.722362337305031,135.465588326107,0.0,0.0,65.02,0.0,12.1952986,48.5543266,20191203,388.104,76.0,132.0,1313.0,8,6,14,0.0,0.0,-0.02,0,0,0,0,0,0,0,0,31,27,21,25,941,941,941,941,940,940,940,940,0.0,0.0,0.0,0.0,12.4,12.4,12.4,12.3,0.15,0.0,0.15,0.15,-45.0,-0.33319706,-2.0592906,0.002233361,0.0,0.0,0.0,221.5921,93,6,10.0,10.85,17.41,16.94
26529,12.195243832973599,48.554282826058504,18,244.93759,252.03468,0.09456357,0.003931177,-0.9785475,0.98311394,0.6295476999999999,1.9072449,1.3589573,2.4250112,186,714,1611,1771,-0.031875633,0.024142914,-0.08234095599999999,0.09153671,0.03998670119908701,0.172061544051634,-0.317180610603405,5.66401433773752,-52.5065535613735,307.493446438626,59.123441018735505,86.5642646276976,-7.98429341690258,-64.571870745385,1.43529834109004,428.5189924332249,-13.2472917208064,-10.0334014670286,65.06,0.100000001490116,12.1952444,48.5542823,20191203,387.045,64.0,117.0,1121.0,9,9,18,0.01,0.01,0.0,0,0,0,0,6360,6161,6144,6268,31,26,21,24,1296,1296,1296,1296,1296,1296,1296,1296,29.1,29.7,29.1,29.1,11.6,11.5,11.6,11.6,0.27,0.28,0.34,0.33,-108.64754814225,-0.6810606,-1.175982,0.40050137,0.0,0.0,0.0,238.38197,110,1,21.25,21.25,21.25,21.25
24635,12.1963805914681,48.55612945954821,12,276.351,271.9864,0.06337455,-0.023991698,-0.9811475000000001,0.98348486,0.2119312,-0.2331384,0.16460977,0.35547817,-892,160,1510,1761,0.08348437,0.019189805,-0.012080811,0.08650916,0.085661474637604,-0.030450760234154,1.40297712944085,3.71328843887484,-170.99657659528998,189.00342340471002,-404.20456791066704,100.102996381551,23.977788541859603,-171.174857454196,4.10593884236089,296.746300559065,0.0,0.0,65.01,0.0,12.1963802,48.5561295,20191030,390.325,89.0,151.0,1450.0,7,5,12,0.01,0.0,-0.01,0,0,0,0,0,0,0,0,35,32,29,29,941,941,941,941,940,940,940,940,0.0,0.0,0.0,0.0,11.6,11.6,11.6,11.5,0.15,0.15,0.15,0.15,-45.0,-0.6584343,-0.46574992,-0.00011816343,0.0,0.0,0.0,235.54036000000002,107,6,10.0,14.07,19.84,17.79
29788,12.196394254144302,48.5561213743149,17,284.875,278.98978,0.010218116999999999,0.06541512,-0.9816279,0.98385817,3.2866771,5.3297057,-1.5666821000000002,6.454649400000001,-838,22,1589,1796,0.018702643,0.20956421,1.1594117,1.1783473,0.210397116457875,-0.012212008627597,-4.06413222595411,1.8970731581795501,-168.673491899979,191.32650810002102,-406.606850532769,111.710490894836,15.6067475672556,-170.274580722199,3.44961051559547,391.223592230163,0.0,0.0,64.99,7.099999904632571,12.1963937,48.556121399999995,20191030,396.231,65.0,109.0,746.0,9,8,17,-0.12,0.18,1.21,0,0,0,0,12082,10447,11817,12573,36,33,32,31,1635,1558,1635,1650,1636,1545,1636,1664,67.7,58.6,67.5,69.1,10.7,10.7,10.8,10.6,1.21,0.86,1.18,1.05,-52.105113919488794,-0.1510734,-2.7279012000000002,0.9016978999999999,1.8907028000000001,-0.42649493,1.8419716,248.62377999999998,120,4,64.9,53.68,64.55,67.73
13562,12.1952244416127,48.5542698526262,16,247.14897,249.23051,0.008186008,0.042672317,-0.9791325,0.9800961,-3.5904536,3.6580338,-1.1900591,5.262016,341,661,1596,1760,-0.061616153,0.0025710114000000004,0.28286508,0.2895096,0.06166976791266001,0.060464782806533,-2.89330006250902,0.805844010720945,-56.842109194278095,303.157890805722,32.754937299717,157.145533787453,-15.0843568508301,-63.8974335540985,1.12713668755852,203.411882746838,0.0,0.0,65.01,1.5,12.1952249,48.5542696,20191203,392.015,69.0,124.0,817.0,8,8,16,-0.08,-0.05,0.22,0,0,0,-10000,12647,10813,12082,11817,31,27,22,25,1638,1562,1651,1609,1635,1557,1649,1616,67.8,59.1,69.6,64.5,10.7,10.7,10.7,10.6,0.95,0.79,1.15,0.94,-74.36859013626241,-0.6733762,-2.153255,0.69245654,2.019768,-2.0164316,0.11604424,251.05772,123,5,63.07,54.7,67.2,62.21
30067,12.196398459142001,48.5561196056406,17,280.0236,274.07626,0.01598846,-0.0063965437,-0.97232616,0.9724786,2.614827,-1.507157,0.58425504,3.0741172000000003,-791,111,1575,1765,-0.01089167,-0.017258225,0.7669715,0.76724297,0.020407714823214,0.10764807876751,0.250269160890605,1.24666174128757,-169.186404556264,190.813595443736,-408.48430374824204,116.996645531876,14.273645710596199,-172.163813930119,3.81478668773628,391.863170062832,0.0,0.0,65.01,2.09999990463257,12.1963984,48.5561199,20191030,391.341,65.0,109.0,769.0,9,8,17,-0.08,-0.07,0.84,0,0,0,0,11948,10978,12358,12014,36,31,33,34,1620,1578,1685,1606,1622,1580,1686,1607,65.8,61.0,73.2,64.5,10.7,10.7,10.7,10.4,1.01,0.93,1.46,1.04,-23.4086740970472,-0.08882092,-0.7779989,0.4549067,1.523816,-0.37547997,1.4768311,249.49289,121,4,62.99,57.13,70.75,61.55
32673,12.1963941678419,48.556110780598495,15,276.31158,271.07617,0.078514285,-0.0030969659999999996,-0.9784072,0.9815573000000001,0.15048791,-0.058664046,-0.085462525,0.18273456,-830,103,1528,1741,0.010950878,0.0036946817,0.012565146999999999,0.017072063000000002,0.011557352994132,0.21271969565057003,0.233431826698807,4.5346385549344,-165.698598627905,194.301401372095,-405.710566989506,125.90051800221201,11.8065299903634,-172.201056863349,4.27144688094333,397.914504770464,64.92053629677571,68.1347893932666,65.03,0.0,12.1963941,48.556111200000004,20191030,389.73800000000006,81.0,139.0,1316.0,7,8,15,0.0,-0.01,0.0,0,0,0,0,0,0,0,0,33,30,29,28,941,941,941,941,940,940,940,940,0.0,0.0,0.0,0.0,11.4,11.2,11.2,11.1,0.15,0.15,0.15,0.15,-45.0,-0.529755,0.5552342,-8.944145499999999e-06,0.0,0.0,0.0,238.37605,110,6,11.22,10.0,19.58,19.68
4170,0.0,0.0,0,317.82065,319.3174,0.009007081,0.0020737168,-1.0046836,1.0047262,0.85788316,-0.48416975,0.22598983,1.0106707,-919,503,1280,1654,-0.010521118,-0.025719715,0.027086232,0.038805433,0.027788444948064,-0.027788444948064,-0.11524267676559,0.6516485631817409,-147.898820336964,212.101179663036,6.974212751011112,60.1596898759479,-21.540572509035,-150.793987458829,0.0,0.0,0.0,0.0,64.99,0.0,0.0,0.0,20191204,0.0,0.0,0.0,0.0,0,0,0,0.0,0.0,0.0,0,0,0,0,12082,12358,12573,11690,45,44,38,37,1598,1615,1613,1593,1597,1615,1611,1591,63.6,65.1,64.7,62.7,11.5,11.6,11.6,11.5,1.07,1.26,1.11,0.86,98.68299983099092,-0.20980182,-0.103017375,0.39844164,0.32176550000000004,0.20289782,0.24973091,238.63557000000003,110,6,59.34,61.7,61.76,59.22
15465,12.195301211477402,48.5543191649626,14,247.45888,248.10051,0.03387654,-0.05539372,-0.9820321,0.9841764,-4.746475,1.8676456,-0.35708404,5.1131825,163,916,1478,1746,-0.0058022537,-0.019054467,0.14306723,0.14444712,0.019918304332568,0.18379836548785694,2.81750000320377,1.91956405765515,-64.3422783033441,295.657721696656,-875.699139106117,86.4107052101569,-307.53893727871,-75.7523995584735,4.82425588251417,376.133857053695,-77.1077494512521,-73.8938438982806,65.06,0.0,12.1953024,48.5543188,20191203,388.292,79.0,132.0,1237.0,7,7,14,-0.01,-0.01,0.01,0,0,0,0,0,0,0,0,32,29,23,27,941,941,941,941,940,940,940,940,0.0,0.0,0.0,0.0,11.9,11.9,12.0,11.9,0.15,0.0,0.15,0.15,-45.0,0.045686483,-1.3838805,0.0010435729,0.0,0.0,0.0,225.00375,97,6,10.0,10.2,19.63,12.61
19018,12.1949544164165,48.55447096094949,17,253.49582,255.02327,0.010682675,0.17155257,-0.9582664,0.9735599,1.450015,-5.5411972999999985,-1.3730904,5.8900585,252,528,1693,1791,-1.7116269,-1.4413586,-0.10865045,2.2403095,2.23767315924434,0.6064961108002359,-10.768424360616601,3.40429942371405,-54.5466288079082,305.453371192092,-866.127725969689,40.159652746732895,-294.869807846777,-67.5831023067481,30.8004207989721,427.672627496352,-142.167263139289,-138.953357586318,64.92,6.599999904632571,12.1949627,48.554476,20191203,395.005,65.0,119.0,889.0,9,8,17,-1.61,-1.69,-0.09,-10000,0,0,0,12873,10978,11090,12501,34,30,24,29,1646,1517,1554,1645,1648,1517,1548,1636,68.6,54.3,57.5,68.5,11.1,11.2,11.2,11.1,1.11,0.64,0.84,1.32,-94.49676455163531,-0.7803104000000001,-4.5653834,1.4048942,1.194598,-1.1608922,-0.28176853,239.39796,111,6,66.04,49.64,53.5,64.51
38884,12.1963999070067,48.556124533456796,17,290.55667,284.41974,-0.020817205,0.08911371,-0.9781575000000001,0.9824290000000001,2.5739033,4.1028139999999995,0.019548126000000002,4.843392,-726,-126,1654,1810,0.074161135,-0.064068496,1.3039948000000001,1.3076723999999997,0.098003295316932,-0.03194132563687,-5.6170301922547905,-1.7905058743537199,-177.854649144444,182.145350855556,-417.02398377851404,134.722635500195,-0.7761413376685921,-177.31233825895802,1.07908859112543,497.759721166729,0.0,0.0,65.0,13.1999998092651,12.1963998,48.5561248,20191030,399.81,65.0,107.0,749.0,9,8,17,0.0,-0.1,1.43,0,0,0,0,11882,10012,11948,12014,36,32,32,32,1631,1525,1664,1662,1633,1532,1661,1660,66.2,55.1,70.8,70.6,10.4,10.5,10.4,10.5,1.05,0.67,1.11,1.02,-43.1118119932591,0.19263768,-2.1764386000000004,0.6845753000000001,1.5835888,-0.27283296,1.5599089,258.0305,129,4,64.94,52.63,67.01,66.69
5393,12.195204852804899,48.55428779884439,14,253.35753,253.11873,-0.030200977,0.11175523,-0.7976608000000001,0.80601746,18.09657,26.803247,-1.3905678999999995,32.370259999999995,159,993,1546,1844,-0.36990604,-0.69522524,0.17911205,0.8076198,0.787507857934409,1.1412045680818002,2.92916269102131,4.81215907643353,-80.1753272008818,279.824672799118,-0.133219801365653,79.2222658135919,-6.3772419852308095,-72.2464573287129,2.81292435049613,87.6754532487522,-103.866378380828,-100.65248812705,64.03,5.1999998092651385,12.1952046,48.55428920000001,20191203,400.191,75.0,144.0,903.0,7,7,14,-0.55,-1.07,-0.11,0,0,0,-6696,11382,8720,10653,11382,29,24,20,23,1581,1385,1551,1601,1583,1384,1553,1601,61.5,39.0,57.8,63.0,10.7,10.7,10.7,10.5,0.78,0.37,0.83,0.87,-60.315201960576715,-0.7826982,-3.175169,1.1056241000000002,1.5707303999999995,-1.568198,0.08915718,255.94434,127,6,57.15,32.8,53.36,58.7
5779,12.1963758538174,48.55612151750339,16,298.08746,296.82187000000005,0.023830079,0.027443422000000002,-0.97614604,0.97682244,0.9870271,-1.4855633999999998,-29.534042,29.587849,-541,637,1578,1785,-0.06691391,-0.0276346,-0.027856247,0.07757005,0.072395735964721,0.303196979727187,-2.25136755096882,1.2233597127094198,-134.738961106206,225.261038893794,-345.850439613778,13.2626442477135,50.471163536942605,-126.013856949178,0.23272752531822896,89.02052355489259,-108.044158295949,-104.82990519945801,65.0,20.0,12.1963762,48.556121999999995,20191030,407.969,68.0,120.0,956.0,9,7,16,-0.01,-0.1,-0.09,0,0,0,0,11817,11382,11503,12429,35,36,34,34,1593,1576,1578,1607,1592,1577,1582,1605,62.7,61.0,61.0,64.6,11.4,11.5,11.6,11.3,0.89,1.04,0.97,1.01,-61.694223573341105,-0.24657726,-1.2719432,0.49225605,1.107161,-0.5134647,0.98089737,236.13086,108,4,59.06,57.18,57.8,60.71
23615,12.195218125377801,48.5542608909081,16,242.26761,251.85616,0.015486408,0.014389547,-0.9949325,0.99515706,6.5262747,4.4609510000000006,1.1528211000000002,7.988825999999999,302,730,1571,1758,-0.07092474,-0.12030231,0.19942728,0.24346294,0.13965301239416106,0.071669987865056,-1.38586550215547,1.1124966823041598,-57.4078134312716,302.592186568728,58.79559823046821,125.269252731596,-15.7503067150895,-66.6097936266288,1.73487331842181,407.611120325812,0.0,0.0,64.96,0.8999999761581421,12.195219,48.554261,20191203,391.201,69.0,123.0,804.0,8,8,16,-0.04,-0.1,0.27,0,0,0,-10000,10978,10298,11205,10298,32,27,19,25,1547,1512,1560,1544,1544,1510,1571,1538,57.5,54.3,59.2,57.5,10.8,10.7,10.8,10.7,0.71,0.74,0.78,0.75,45.0,-0.23722851,-1.9941581,0.7042399,1.868144,-1.8522722,-0.24300218,249.73299,121,5,53.02,48.85,56.41,52.36
29972,12.1963989056917,48.556120861562704,16,281.15674,275.46265,-0.0039614737,0.0018552942,-0.9759896999999998,0.9759995000000001,1.7175016,-0.9659375,-0.14305647,1.9756802,-722,127,1614,1772,-0.0044392264,0.05608528,0.82176316,0.8236868,0.05626069271924201,0.08440244311186298,0.212986882490353,-0.5020033701923,-168.705221687018,191.29477831298198,-407.52651175632695,116.673776761152,12.813157859136801,-170.665472914622,3.75841041249604,391.68454874889295,0.0,0.0,65.0,3.5,12.1963988,48.556121399999995,20191030,392.70099999999996,73.0,120.0,752.0,8,8,16,-0.09,0.09,0.94,0,0,0,0,11264,11090,12358,12288,35,32,32,31,1596,1577,1665,1628,1594,1584,1667,1623,63.1,60.8,70.8,66.7,10.7,10.7,10.8,10.7,1.05,0.94,1.36,1.05,-2.59802643782331,0.023246676,-1.5202944999999999,0.59795785,1.7140862000000001,-0.40489749999999997,1.6655778,248.94202,120,4,59.53,57.34,68.22,63.82
10606,12.1963575712149,48.55611969988029,14,276.91803,275.2951,0.015709389,-0.027886301000000002,-1.1083739,1.1088358999999999,1.4099241000000002,-4.9063945,-1.2670761000000001,5.259855,-707,443,1517,1731,0.0134851225,0.21181841,-0.7040639,0.7353604,0.212247235017858,0.002753588234126,1.70944923150585,-1.12525978939548,-153.090595933977,206.909404066023,-373.670049476527,38.7953744805144,41.8198225401545,-151.653684671286,1.59339142268235,100.49697222771799,0.0,0.0,64.99,0.200000002980232,12.1963571,48.5561201,20191030,390.31699999999995,99.0,186.0,1555.0,7,7,14,0.33,0.49,0.16,0,0,0,10000,11442,12573,12950,12950,38,36,30,32,1583,1632,1641,1628,1582,1635,1644,1629,61.1,67.5,68.1,66.5,11.6,11.6,11.8,11.6,1.06,1.39,1.32,1.21,30.963756532073496,-0.025337974,-0.014986368,0.39987972,0.0,0.0,0.0,1.0,128,6,58.74,64.31,65.96,64.19
19970,12.194804152296099,48.5543929216401,16,253.49933,255.08046,-0.12435159,-0.09012063,-0.96375066,0.97591,-0.30770636,0.71917343,-17.663836,17.681148999999994,-552,-82,1751,1837,-2.6733303,-0.41105908,-0.03205083,2.7049384,2.7047485591490696,0.302310831889588,0.066557911410042,-9.488498600346759,176.620394323173,176.620394323173,-1008.12132126681,34.2934248370038,-301.590828937573,174.239999640737,35.1928333712616,470.650541807488,-179.30204308287205,-176.08813752990002,65.01,6.699999809265139,12.1948061,48.5544001,20191203,395.069,68.0,128.0,881.0,8,8,16,-2.83,-0.64,-0.03,0,10000,-3845,0,8514,10978,12721,12014,31,28,23,30,1408,1535,1642,1617,1392,1530,1647,1628,42.7,55.3,68.2,65.7,11.2,11.2,11.2,11.1,0.37,0.82,1.19,1.15,31.1658176127284,4.0019674,1.6206161,-0.39184377,2.14217,-2.0576553,-0.5957745,223.02594,95,6,34.05,51.33,65.93,63.62
9304,12.1952741313663,48.554315372244396,14,247.40596,247.56496,0.09327726,0.015110204,-0.9784713,0.9830234,0.3529261,-0.07978859,0.0011424775,0.36183473,140,782,1568,1757,-0.0069689485,0.0102667175,-0.0026210381,0.012682333999999998,0.012408534728463,0.004806740391484,-0.911895410256488,5.42506650382784,-66.120567471683,293.879432528317,15.4494437744046,111.56006528508499,-5.14923410539717,-70.4558608154709,3.73195749030865,104.878156562682,0.0,0.0,65.02,0.0,12.1952744,48.5543153,20191203,391.208,75.0,144.0,962.0,7,7,14,0.0,0.0,-0.01,0,0,0,0,0,0,0,0,30,26,20,23,941,941,941,941,940,940,940,940,0.0,0.0,0.0,0.0,12.3,12.3,12.4,12.3,0.15,0.0,0.15,0.15,-45.0,-0.5445806,-0.99651444,0.0003799299,0.0,0.0,0.0,241.07683,113,6,10.32,10.0,11.68,11.76
2583,12.1952543150036,48.554273082528105,16,248.25533,248.53821,0.09884648,0.0064738407,-0.9767072,0.98171765,0.41974714,-0.034174643,0.010937524,0.42127806,159,726,1582,1747,0.00086434564,-0.00046369038,-0.00014371504999999998,0.0009913406,0.0009808680589460002,0.023575778221405,-0.413780335521298,5.767162283830332,-64.6187572019001,295.3812427981,136.34425704620702,334.34989980898104,-371.370946131408,-66.7618971196613,1.75678545395385,0.0,0.0,0.0,46.3,0.0,12.1952549,48.5542729,20191203,391.254,69.0,122.0,846.0,8,8,16,0.02,-0.01,-0.01,0,0,0,0,0,0,0,0,25,25,22,26,941,941,941,941,940,940,940,940,0.0,0.0,0.0,0.0,12.7,12.8,12.8,12.7,0.0,0.0,0.0,0.0,-45.0,0.0,0.0,0.0,0.0,0.0,0.0,0.0,0,6,0.0,0.0,0.0,0.0
10328,12.1952388143066,48.554267781304105,13,248.12154,248.00832000000003,-0.25833875,0.09729426,-0.8066441999999999,0.85257256,-22.012156,2.6747308,15.670921,27.15266,40,827,1560,1766,-0.26000273,-0.4052092,0.7548796999999999,0.8953431000000001,0.48145190499456,0.35835663306087395,-4.02222513247923,3.13027334379029,-72.4539825157101,287.54601748429,1.0248768769775,132.120577616453,-1.39686546654759,-82.5762911676324,4.7759189133238,112.124078667687,-110.021433795124,-106.80754354134599,64.94,0.0,12.1952434,48.55426920000001,20191203,390.17800000000005,75.0,152.0,1127.0,7,6,13,-1.1,-1.72,0.05,0,0,0,0,0,0,0,0,30,27,20,23,941,941,941,941,940,940,940,940,0.0,0.0,0.0,0.0,12.3,12.3,12.4,12.3,0.15,0.0,0.15,0.15,-45.0,-0.5445806,-0.99651444,0.0003799299,0.0,0.0,0.0,241.07683,113,6,10.32,10.0,11.68,11.76
25980,12.1952855484241,48.5543231677129,12,247.5443,251.85689,0.061731756,0.014517168,-0.9823867,0.98443145,0.4750502,-0.036870934,0.03229785,0.47757232,317,621,1571,1718,-0.006229059,0.011918242,0.10512542,0.10598207,0.013447887296165004,0.048294060337216,-0.7947172926269409,3.61281280691935,-48.128859456441795,311.871140543558,55.8527382567817,139.729800007619,-15.0699886964981,-57.162159893670214,6.85001076712659,420.48697010363196,0.0,0.0,65.01,0.0,12.195286,48.5543228,20191203,387.214,80.0,162.0,1284.0,8,4,12,0.01,0.0,0.02,0,0,0,0,0,0,0,0,30,26,20,23,941,941,941,941,940,940,940,940,0.0,0.0,0.0,0.0,11.9,11.9,11.9,11.6,0.15,0.0,0.15,0.15,-45.0,-0.6810606,-1.175982,0.0005013687,0.0,0.0,0.0,238.38197,110,6,10.0,10.98,17.61,16.21
8805,12.1963724792676,48.556117674020605,11,276.67037999999997,274.92667,0.05925057,-0.028899802000000002,-0.98328304,0.98549044,1.4777855,0.25087014,-4.4088519999999995,4.65669,-872,325,1514,1777,0.07010498,-0.02231507,-0.0035202655,0.073655024,0.073570852367206,0.10035371335903401,1.9121940032551599,3.71618174145359,-153.44912295613997,206.55087704386003,-373.169736598703,30.634499381553002,50.71719496716539,-160.425016903533,0.6648641261284051,96.56549247327351,0.0,0.0,65.01,0.0,12.196373199999998,48.556118,20191030,388.69599999999997,115.0,233.0,1356.0,6,5,11,0.01,0.02,-0.02,0,0,0,0,0,0,0,0,37,35,29,31,941,941,941,941,940,940,940,940,0.0,0.0,0.0,0.0,12.3,12.3,12.3,12.0,0.15,0.15,0.15,0.15,-45.0,-0.51195323,-0.003916055,-0.0001429677,0.0,0.0,0.0,223.11272000000002,95,6,12.17,10.0,17.63,17.52
2542,12.1963767211789,48.5561208427219,13,279.47565,278.9267,0.041647665,0.010269294,-0.98172677,0.98266345,2.9814737,-1.8119996999999999,2.6767135,4.3974223,-899,249,1514,1778,0.015144578999999998,-0.04372949,-2.0479577,2.0484803,0.046277713692208,0.049049433297802,-2.8682335593916406,3.8223367567100697,-157.022848654103,202.977151345897,-14.3900738481005,-7.27082077279037,58.0509056447859,-157.850200741488,0.19900350132354103,0.566302619713853,0.0,0.0,64.9,2.0,12.196377,48.5561211,20191030,395.215,100.0,190.0,1348.0,7,6,13,-0.06,0.15,-0.97,0,0,0,10000,11882,12573,11882,13187,34,33,31,30,1567,1617,1571,1624,1572,1609,1573,1619,59.7,65.2,59.8,66.0,11.8,11.6,11.9,11.6,1.02,1.23,0.92,1.27,-45.0,-0.5876197,-0.23624258,0.3883021,0.0,0.0,0.0,1.0,128,6,57.5,59.97,56.86,62.49
804,12.1963808553712,48.5561245002038,13,276.78002999999995,276.76025,0.060261637,-0.02922145,-0.97682714,0.9791203000000002,0.21202084,0.032040022,0.0063413302,0.21452183,-892,431,1453,1758,0.0092163235,0.0012841795,0.008839305,0.012834446999999999,0.009305360723945,0.053613735026225996,1.8602146338742,3.4579919758203,-152.47931695831002,207.52068304168998,-6.420758508527,-12.360625100086699,60.8770802388373,-154.435895150885,0.753602891780664,0.0,0.0,0.0,63.03,0.0,12.196380300000001,48.5561245,20191030,387.595,100.0,193.0,1981.0,6,7,13,-0.01,-0.01,0.02,0,0,0,0,0,0,0,0,33,30,31,32,941,941,941,941,940,940,940,940,0.0,0.0,0.0,0.0,12.7,12.8,12.8,12.7,0.0,0.0,0.0,0.0,-45.0,0.0,0.0,0.0,0.0,0.0,0.0,0.0,0,6,0.0,0.0,0.0,0.0
11562,12.1961494835604,48.5558710165946,17,288.7826,286.35607999999996,-0.06281108,0.06272729,-0.9382186,0.9424087,-6.57195,1.8545741999999998,-1.5420758999999997,7.0005692999999996,-630,245,1643,1776,-2.3912756,-1.4321247,0.06521822,2.7880877999999996,2.78732493582136,-0.17169834930009698,-3.1634155824476897,-5.015256654326049,-153.554460043804,206.44553995619597,-378.92229238409203,37.4655533271427,37.2280445514511,-156.464537527404,31.612481670440697,132.969190050151,-154.78285099746,-151.568597900969,65.0,11.3999996185303,12.1961559,48.5558784,20191030,400.952,65.0,113.0,974.0,9,8,17,-2.43,-1.24,-0.06,0,10000,0,0,10922,9741,12358,12218,38,33,30,31,1538,1469,1621,1617,1540,1472,1632,1621,56.2,48.2,66.0,66.0,11.6,11.5,11.6,11.4,0.92,0.59,1.17,1.21,-14.89769179916,2.8761982999999995,-1.5279641000000002,0.03350714,0.93648297,-0.77040046,0.53243166,223.40465,95,6,54.04,45.47,63.34,61.63
14703,12.195248785070401,48.5542711559681,16,248.55951,249.10287,0.07136954,0.22059509,-0.6443364,0.68478113,-59.047585,9.55414,74.39184,95.45702,491,241,1697,1782,1.6257848,1.3567573,-0.31286946,2.1405265,2.11753780380786,0.07288853721297299,-4.16448002372032,12.6684558861336,-5.41015483432147,354.589845165678,-813.7931057869881,72.9272760644848,-306.485123335652,-23.247732750641305,2.37689543573786,367.83988725689903,40.564418968661705,43.7783245216332,65.12,0.0,12.1952448,48.55426660000001,20191203,389.152,67.0,124.0,916.0,9,7,16,0.99,0.58,0.0,0,0,0,0,0,0,0,0,32,29,23,27,941,941,941,941,940,940,940,940,0.0,0.0,0.0,0.0,11.9,11.9,12.0,11.9,0.15,0.0,0.15,0.15,-45.0,0.045686483,-1.3838805,0.0010435729,0.0,0.0,0.0,225.00375,97,6,10.0,10.2,19.63,12.61
4128,0.0,0.0,0,317.87613,319.4572,0.014801238,0.005348917,-1.1193558,1.1194664,-4.4036417000000005,-4.3747683,0.32824040000000004,6.215979,-888,511,1255,1620,-0.035712466,-0.008438316999999999,0.6827845,0.6837699,0.03669585068115,-0.03669585068115,-0.146759022162509,0.22997491121607505,-147.87348755137302,212.126512448627,6.5378618029741205,59.88442091908789,-21.841733373074497,-149.78461456357002,0.0,0.0,0.0,0.0,64.91,0.0,0.0,0.0,20191204,0.0,0.0,0.0,0.0,0,0,0,0.0,0.0,0.0,0,0,0,0,12429,12573,12950,12429,46,44,39,38,1657,1677,1681,1644,1662,1688,1677,1642,70.1,72.7,72.7,68.7,11.3,11.5,11.5,11.2,1.28,1.46,1.35,1.22,60.45034938829921,-0.17121398,-0.13891685,0.39893153,0.31364033,0.19371851,0.24666452,238.54027,110,6,67.58,70.88,70.07,65.2
12734,12.1961875444642,48.5559070847531,17,297.90767999999997,294.9529,-0.09811817,-0.08225338,-0.96428066,0.9727435,4.288948,-3.5950906000000002,2.1250193,5.9862722999999995,807,-171,1564,1768,2.8612747000000005,1.308071,-0.068264015,3.14684,3.1460997277111398,0.20758850832410897,6.085036504576969,-5.97392415154538,29.512977143417302,29.512977143417302,-542.711225566676,49.3613335958465,38.4369698262105,27.5901884665302,26.753429671355,159.04817549264098,24.1329444846113,27.3471975811022,65.08,20.0,12.1961821,48.5558999,20191030,407.961,65.0,113.0,782.0,9,8,17,2.94,1.52,-0.15,0,0,0,0,7835,10813,11948,12796,37,34,33,34,1370,1538,1615,1622,1364,1534,1613,1634,38.1,56.2,64.3,66.1,11.5,11.6,11.6,11.2,0.34,0.81,1.12,1.09,19.2598971601798,2.911665,2.6615882,0.24820264,1.8008206000000002,-0.79977083,1.6134812,235.88657,107,7,30.57,51.76,61.7,64.36
3413,0.0,0.0,0,318.9709200000001,320.5481,-0.011120586000000002,0.014024891,-0.99584216,0.996003,-1.368188,-1.5756981,0.8462133,2.2518525,-907,540,1485,1821,-0.86689955,-0.52666616,0.03961167,1.0151163,1.01434315704927,-1.01434315704927,-0.3687283570708579,-0.655232702494692,-147.968210291221,212.031789708779,4.52578880007201,55.365353961903,-21.11261624346,-149.254897012108,0.0,0.0,0.0,0.0,63.27,0.0,0.0,0.0,20191204,0.0,0.0,0.0,0.0,0,0,0,0.0,0.0,0.0,0,3578,0,0,12014,11948,12573,12149,42,41,35,36,1572,1578,1624,1602,1569,1568,1626,1608,60.2,60.7,66.3,63.5,11.6,11.7,11.7,11.5,0.85,1.01,1.14,1.11,25.2229035910225,0.5037202999999999,-0.30517325,0.39058343,0.07821088,0.026895752,0.073440865,231.76707,103,6,56.73,56.54,62.84,60.46
20050,12.1960909966505,48.555788711257,16,296.5086,292.65475,-0.0010152486999999999,-0.058591094,-0.78603435,0.7882157,-0.072958544,4.3489976,0.8751959,4.436786,695,-86,1629,1773,-0.01479241,-0.022611612000000003,-1.4606434,1.4608933000000002,0.027020370779607002,0.31926153584137895,4.64763811535768,0.19852179360763003,26.1847802796146,26.1847802796146,-552.902192175004,81.0473649920923,33.883363871336606,17.2626803291109,39.8816058877094,244.981323359532,0.0,0.0,64.93,19.2000007629395,12.196091099999999,48.5557879,20191030,408.901,67.0,112.0,776.0,8,8,16,0.05,-0.05,-1.99,0,0,0,0,10298,10922,11690,11882,36,33,32,31,1533,1563,1609,1584,1538,1567,1610,1587,56.1,59.1,64.3,61.6,11.1,11.1,11.1,10.9,0.9,0.93,1.07,0.89,10.4077113124901,-0.20916224,2.4893932,0.74306285,1.7417411,-1.0325196,1.4026994,255.12852,127,7,52.17,56.33,63.27,58.93
35612,12.196367225591302,48.5560992748112,17,290.29257,284.62317,-0.060275435,0.085250415,-0.9729988000000002,0.9785844000000001,0.8624446,0.6473890999999999,-1.4051893999999998,1.7712935,-460,427,1643,1758,-1.7058573000000001,-2.349734,0.00044946524000000004,2.9036527000000003,2.90365271232486,-0.38899285475751505,-4.35795001215432,-5.943172778721019,-137.309965645149,222.690034354851,-375.88628743567597,131.680679000522,-6.2712381500592995,-138.565770007963,4.52665996557102,410.33194137832197,-133.307666448789,-130.093413352298,64.91,13.3000001907349,12.1963793,48.5561056,20191030,398.97900000000004,65.0,108.0,1129.0,9,8,17,-1.71,-2.14,-0.59,0,10000,0,0,11817,10759,12573,12218,34,32,30,29,1628,1556,1670,1659,1633,1556,1670,1657,66.5,58.5,71.3,70.6,10.7,10.8,10.7,10.7,1.06,0.86,1.44,1.2,-17.608474763118103,2.1999732999999995,-1.568486,0.28399733,0.38257855,-0.23190203,0.30428243,268.0396,134,6,64.15,54.58,68.86,67.16
39432,12.1963988718178,48.5561181809284,14,278.59902999999997,273.47437,0.025220197000000003,0.02851673,-0.9968316999999999,0.99755836,0.4125235,-0.6652264,-2.0858328,2.2278689999999997,-753,-17,1586,1755,0.010695069,0.08437103,0.16764045,0.18797919,0.085046196503835,0.000576228422343,-1.38151108265388,1.78382420193962,-175.6708610043,184.3291389957,-419.0326918571,140.841752810376,1.7645899829449099,-178.269861077989,1.3975601792472199,498.799871414311,0.0,0.0,64.99,2.2000000476837203,12.1963984,48.5561185,20191030,389.74300000000005,89.0,145.0,762.0,6,8,14,-0.06,0.06,0.71,0,0,0,0,11322,12501,11205,12288,35,35,32,33,1616,1689,1598,1667,1610,1688,1604,1666,64.8,73.5,63.5,71.0,10.4,10.3,10.5,10.4,0.98,1.35,1.01,1.28,163.779806304397,-0.25736620000000004,-1.7324775000000001,0.6198610999999999,1.6323593,-0.36973828,1.5899341,257.95734,128,4,61.9,70.75,60.35,67.98
40202,12.196386366668198,48.556111371455,16,276.72372,271.23138,0.02318665,-0.044348035,-0.96146667,0.96276814,5.786499500000001,-8.291609,1.7062549999999999,10.254056,-826,59,1575,1779,-0.029119192000000002,-0.015345949,0.20140491,0.20407687,0.032915429193765,0.030795053322112003,2.67870749789342,1.91108320292364,-176.79121606976503,183.20878393023497,-422.04442885255503,147.603087499699,0.37490643547243296,178.912562955572,2.58695161613319,500.66693516288905,0.0,0.0,65.04,0.0,12.1963866,48.556112299999995,20191030,389.048,73.0,118.0,996.0,8,8,16,-0.03,0.0,0.06,0,0,0,0,11627,12014,12721,10653,35,34,34,33,1631,1675,1693,1587,1632,1679,1691,1587,67.1,71.8,74.1,62.2,10.4,10.3,10.4,10.4,1.04,1.32,1.46,0.91,96.2069579043706,-0.81737614,1.098406,0.42603785,0.49247354,0.25934547,0.41865274,274.8738,137,4,64.58,70.08,71.0,58.38
26122,12.1963511839747,48.556134455251204,17,285.41953,280.76223999999996,0.025684977,0.021180853,-0.98355025,0.9841135,2.7090526,-3.3784002999999996,0.58294916,4.3694835,-761,435,1553,1783,0.021329717999999998,0.030840894,-1.9496337,1.9499943,0.037498234295005,0.21784473296471105,-0.61653769692457,0.9460128547260691,-142.052345733622,217.94765426637798,-376.899564205771,103.123893782289,17.3007047636222,-148.439307720475,0.801368934853543,301.275883682019,155.653177174008,158.867430270499,64.86,8.60000038146973,12.1963516,48.556135299999994,20191030,399.13599999999997,65.0,110.0,1068.0,9,8,17,0.02,0.06,-1.9,0,0,0,10000,12082,11817,12218,13107,37,34,30,29,1632,1631,1651,1670,1630,1633,1652,1669,67.2,67.1,69.5,71.5,10.9,10.8,11.1,10.8,1.29,1.33,1.35,1.2,-38.9817460755915,-0.6732792,-0.40004838,0.37711996,0.0,0.0,0.0,1.0,128,6,64.96,64.01,65.52,68.97
17154,12.1952894888238,48.5543110097997,16,247.4821,248.27988,0.055949796,0.037945636,-0.9811259,0.9834522,1.2843591,-0.37921247,-0.4407535,1.4098383,121,896,1539,1784,0.013988653,0.0148099465,0.057816036,0.061300173,0.020371964218665,0.014280995543368,-1.7921489623358,3.3072262591349704,-65.7213113273828,294.278688672617,-880.403424999252,90.118694906336,-312.577740233849,-77.574568922575,3.59128589820033,380.188854315867,0.0,0.0,65.0,0.0,12.19529,48.5543108,20191203,388.045,67.0,123.0,1134.0,8,8,16,-0.01,-0.01,0.0,0,0,0,0,0,0,0,0,31,29,22,25,941,941,941,941,940,940,940,940,0.0,0.0,0.0,0.0,12.0,12.0,12.0,11.9,0.15,0.0,0.15,0.15,-45.0,0.045686483,-1.3838805,0.0010435729,0.0,0.0,0.0,225.00375,97,6,10.0,10.2,19.63,12.61
